{
  "type": "FeatureCollection",
  "features": [
    //Красная ветка:
    {"type": "Feature", "geometry": {"type": "Point", "coordinates": [30.35522442200779, 50.46497025505604]}, "properties": {"name": "Академмістечко", "line": "red"}}, 
    {"type": "Feature", "geometry": {"type": "Point", "coordinates": [30.365627991799755, 50.45628408630957]}, "properties": {"name": "Житомирська", "line": "red"}}, 
    {"type": "Feature", "geometry": {"type": "Point", "coordinates": [30.39086035877441, 50.45780434492565]}, "properties": {"name": "Святошин", "line": "red"}}, 
    {"type": "Feature", "geometry": {"type": "Point", "coordinates": [30.404509195232762, 50.458692045907654]}, "properties": {"name": "Нивки", "line": "red"}}, 
    {"type": "Feature", "geometry": {"type": "Point", "coordinates": [30.418872200671345, 50.45939168583306]}, "properties": {"name": "Берестейська", "line": "red"}}, 
    {"type": "Feature", "geometry": {"type": "Point", "coordinates": [30.449176522733342, 50.45441379383504]}, "properties": {"name": "Шулявська", "line": "red"}}, 
    {"type": "Feature", "geometry": {"type": "Point", "coordinates": [30.465036916945472, 50.451265904361165]}, "properties": {"name": "Політехнічний інститут", "line": "red"}}, 
    {"type": "Feature", "geometry": {"type": "Point", "coordinates": [30.49058676724957, 50.4414877297159]}, "properties": {"name": "Вокзальна", "line": "red"}}, 
    {"type": "Feature", "geometry": {"type": "Point", "coordinates": [30.50577954511646, 50.443452718998024]}, "properties": {"name": "Університет", "line": "red"}}, 
    {"type": "Feature", "geometry": {"type": "Point", "coordinates": [30.516082486212962, 50.44504993091289]}, "properties": {"name": "Театральна", "line": "red"}}, 
    {"type": "Feature", "geometry": {"type": "Point", "coordinates": [30.52349843877308, 50.44752033234594]}, "properties": {"name": "Хрещатик", "line": "red"}}, 
    {"type": "Feature", "geometry": {"type": "Point", "coordinates": [30.54787544940457, 50.443280354802845]}, "properties": {"name": "Арсенальна", "line": "red"}}, 
    {"type": "Feature", "geometry": {"type": "Point", "coordinates": [30.55994667170734, 50.44147623827678]}, "properties": {"name": "Дніпро", "line": "red"}}, 
    {"type": "Feature", "geometry": {"type": "Point", "coordinates": [30.577575346042916, 50.446095558401055]}, "properties": {"name": "Гідропарк", "line": "red"}}, 
    {"type": "Feature", "geometry": {"type": "Point", "coordinates": [30.598956339302973, 50.45200195604386]}, "properties": {"name": "Лівобережна", "line": "red"}}, 
    {"type": "Feature", "geometry": {"type": "Point", "coordinates": [30.613607807111936, 50.45603437095899]}, "properties": {"name": "Дарниця", "line": "red"}}, 
    {"type": "Feature", "geometry": {"type": "Point", "coordinates": [30.63076299998127, 50.460005562441815]}, "properties": {"name": "Чернігівська", "line": "red"}}, 
    {"type": "Feature", "geometry": {"type": "Point", "coordinates": [30.64615425868185, 50.464749417309605]}, "properties": {"name": "Лісова", "line": "red"}}, 

    //Зелёная ветка
    {"type": "Feature", "geometry": {"type": "Point", "coordinates": [30.43547411880911, 50.47776339795095]}, "properties": {"name": "Сирець", "line": "green"}},
    {"type": "Feature", "geometry": {"type": "Point", "coordinates": [30.452218652305834, 50.47431849422152]}, "properties": {"name": "Дорогожичі", "line": "green"}},
    {"type": "Feature", "geometry": {"type": "Point", "coordinates": [30.485707722682786, 50.461501248149624]}, "properties": {"name": "Лук'янівська", "line": "green"}},
    {"type": "Feature", "geometry": {"type": "Point", "coordinates": [30.51600280020338, 50.44603799376957]}, "properties": {"name": "Золоті ворота", "line": "green"}},
    {"type": "Feature", "geometry": {"type": "Point", "coordinates": [30.519769900265377, 50.43977915047874]}, "properties": {"name": "Палац спорту", "line": "green"}},
    {"type": "Feature", "geometry": {"type": "Point", "coordinates": [30.532039602284655, 50.437026779814055]}, "properties": {"name": "Кловська", "line": "green"}},
    {"type": "Feature", "geometry": {"type": "Point", "coordinates": [30.539816428227983, 50.42734336907189]}, "properties": {"name": "Печерська", "line": "green"}},
    {"type": "Feature", "geometry": {"type": "Point", "coordinates": [30.546234364165006, 50.416910720791584]}, "properties": {"name": "Дружби народів", "line": "green"}},
    {"type": "Feature", "geometry": {"type": "Point", "coordinates": [30.561187687554195, 50.402160843581385]}, "properties": {"name": "Видубичі", "line": "green"}},
    {"type": "Feature", "geometry": {"type": "Point", "coordinates": [30.60556282164981, 50.39456457362345]}, "properties": {"name": "Славутич", "line": "green"}},
    {"type": "Feature", "geometry": {"type": "Point", "coordinates": [30.617198855631568, 50.39552434083471]}, "properties": {"name": "Осокорки", "line": "green"}},
    {"type": "Feature", "geometry": {"type": "Point", "coordinates": [30.63585223327597, 50.398273397075954]}, "properties": {"name": "Позняки", "line": "green"}},
    {"type": "Feature", "geometry": {"type": "Point", "coordinates": [30.652795930381483, 50.4010222938912]}, "properties": {"name": "Харківська", "line": "green"}},
    {"type": "Feature", "geometry": {"type": "Point", "coordinates": [30.667774771314097, 50.403331894590885]}, "properties": {"name": "Вирлиця", "line": "green"}},
    {"type": "Feature", "geometry": {"type": "Point", "coordinates": [30.685152268083424, 50.40378729552957]}, "properties": {"name": "Бориспільська", "line": "green"}},
    {"type": "Feature", "geometry": {"type": "Point", "coordinates": [30.697196583086555, 50.40990225562837]}, "properties": {"name": "Червоний хутір", "line": "green"}},

    //Синяя ветка
    {"type": "Feature", "geometry": {"type": "Point", "coordinates": [30.501728628184416, 50.523942526641285]}, "properties": {"name": "Героїв Дніпра", "line": "blue"}},
    {"type": "Feature", "geometry": {"type": "Point", "coordinates": [30.49932276382695, 50.512574024885794]}, "properties": {"name": "Мінська", "line": "blue"}},
    {"type": "Feature", "geometry": {"type": "Point", "coordinates": [30.499420410973983, 50.501992778622615]}, "properties": {"name": "Оболонь", "line": "blue"}},
    {"type": "Feature", "geometry": {"type": "Point", "coordinates": [30.498920652126458, 50.486573455144935]}, "properties": {"name": "Почайна", "line": "blue"}},
    {"type": "Feature", "geometry": {"type": "Point", "coordinates": [30.505261342359365, 50.47448881916649]}, "properties": {"name": "Тараса Шевченка", "line": "blue"}},
    {"type": "Feature", "geometry": {"type": "Point", "coordinates": [30.51641221170053, 50.46637765986789]}, "properties": {"name": "Контрактова площа", "line": "blue"}},
    {"type": "Feature", "geometry": {"type": "Point", "coordinates": [30.52590762995437, 50.459696836774]}, "properties": {"name": "Поштова площа", "line": "blue"}},
    {"type": "Feature", "geometry": {"type": "Point", "coordinates": [30.527188262122827, 50.44854014488006]}, "properties": {"name": "Майдан Незалежності", "line": "blue"}},
    {"type": "Feature", "geometry": {"type": "Point", "coordinates": [30.519285825670984, 50.44088206910522]}, "properties": {"name": "Площа Українських Героїв", "line": "blue"}},
    {"type": "Feature", "geometry": {"type": "Point", "coordinates": [30.518098898385798, 50.43177032863093]}, "properties": {"name": "Олімпійська", "line": "blue"}},
    {"type": "Feature", "geometry": {"type": "Point", "coordinates": [30.521784619787468, 50.42184091186446]}, "properties": {"name": "Палац «Україна»", "line": "blue"}},
    {"type": "Feature", "geometry": {"type": "Point", "coordinates": [30.52603256998716, 50.41445717026405]}, "properties": {"name": "Либідська", "line": "blue"}},
    {"type": "Feature", "geometry": {"type": "Point", "coordinates": [30.518411247726068, 50.405260713226035]}, "properties": {"name": "Деміївська", "line": "blue"}},
    {"type": "Feature", "geometry": {"type": "Point", "coordinates": [30.509415588347384, 50.397814654953635]}, "properties": {"name": "Голосіївська", "line": "blue"}},
    {"type": "Feature", "geometry": {"type": "Point", "coordinates": [30.48942523460157, 50.393832325506295]}, "properties": {"name": "Васильківська", "line": "blue"}},
    {"type": "Feature", "geometry": {"type": "Point", "coordinates": [30.478836593491014, 50.382919028941835]}, "properties": {"name": "Виставковий центр", "line": "blue"}},
    {"type": "Feature", "geometry": {"type": "Point", "coordinates": [30.469903403707924, 50.37704313023141]}, "properties": {"name": "Іподром", "line": "blue"}},
    {"type": "Feature", "geometry": {"type": "Point", "coordinates": [30.455410396872587, 50.36754056086256]}, "properties": {"name": "Теремки", "line": "blue"}},
  ]
}